[
  {
    "school_osm_id": "-3350180",
    "school_osm_type": "relation",
    "school_name": "",
    "place_osm_id": "-1173547",
    "place_admin_level": "8",
    "place_place": "town",
    "place_name": "Лиозно",
    "lon": "30.80259716722202",
    "lat": "55.02550878427631",
    "bbox": "30.8032168,55.025957599428494,30.8019372,55.02506479942824"
  },
  {
    "school_osm_id": "248954080",
    "school_osm_type": "way",
    "school_name": "Школа № 1",
    "place_osm_id": "-1173547",
    "place_admin_level": "8",
    "place_place": "town",
    "place_name": "Лиозно",
    "lon": "30.803708010068622",
    "lat": "55.025627254269814",
    "bbox": "30.8017056,55.024887199428186,30.805843499999995,55.026245599428606"
  },
  {
    "school_osm_id": "279931598",
    "school_osm_type": "way",
    "school_name": "Школа № 2",
    "place_osm_id": "-1173547",
    "place_admin_level": "8",
    "place_place": "town",
    "place_name": "Лиозно",
    "lon": "30.798907729500797",
    "lat": "55.03179335669415",
    "bbox": "30.7972062,55.03123649943015,30.8003227,55.03241399943052"
  },
  {
    "school_osm_id": "4326087091",
    "school_osm_type": "node",
    "school_name": "Музыкальная школа",
    "place_osm_id": "-1173547",
    "place_admin_level": "8",
    "place_place": "town",
    "place_name": "Лиозно",
    "lon": "30.7957296",
    "lat": "55.0216722994272",
    "bbox": ""
  },
  {
    "school_osm_id": "4326903197",
    "school_osm_type": "node",
    "school_name": "Учебно-курсовой комбинат управления сельского хозяйства и производства",
    "place_osm_id": "-1173547",
    "place_admin_level": "8",
    "place_place": "town",
    "place_name": "Лиозно",
    "lon": "30.7885177",
    "lat": "55.010644099423814",
    "bbox": ""
  }
]