[
  {
    "school_osm_id": "262312931",
    "school_osm_type": "way",
    "school_name": "",
    "place_osm_id": "-5598659",
    "place_admin_level": "8",
    "place_place": "town",
    "place_name": "Речица",
    "lon": "30.395772180192758",
    "lat": "52.369082962976655",
    "bbox": "30.395625899999995,52.368987299093114,30.395914899999994,52.369180999093096"
  },
  {
    "school_osm_id": "262492435",
    "school_osm_type": "way",
    "school_name": "",
    "place_osm_id": "-5598659",
    "place_admin_level": "8",
    "place_place": "town",
    "place_name": "Речица",
    "lon": "30.39574546960265",
    "lat": "52.36870302431717",
    "bbox": "30.3951699,52.36826139909315,30.396291099999992,52.369120699093116"
  },
  {
    "school_osm_id": "270843669",
    "school_osm_type": "way",
    "school_name": "Школа № 4",
    "place_osm_id": "-5598659",
    "place_admin_level": "8",
    "place_place": "town",
    "place_name": "Речица",
    "lon": "30.41331297864409",
    "lat": "52.35735315297476",
    "bbox": "30.411776299999996,52.35626629909372,30.4148285,52.35844169909361"
  },
  {
    "school_osm_id": "306064379",
    "school_osm_type": "node",
    "school_name": "Упк №1",
    "place_osm_id": "-5598659",
    "place_admin_level": "8",
    "place_place": "town",
    "place_name": "Речица",
    "lon": "30.4261048",
    "lat": "52.36666929909321",
    "bbox": ""
  },
  {
    "school_osm_id": "306064405",
    "school_osm_type": "node",
    "school_name": "Школа-Интернат",
    "place_osm_id": "-5598659",
    "place_admin_level": "8",
    "place_place": "town",
    "place_name": "Речица",
    "lon": "30.382097699999996",
    "lat": "52.36639579909323",
    "bbox": ""
  },
  {
    "school_osm_id": "307458351",
    "school_osm_type": "way",
    "school_name": "Школа № 8",
    "place_osm_id": "-5598659",
    "place_admin_level": "8",
    "place_place": "town",
    "place_name": "Речица",
    "lon": "30.42593891979711",
    "lat": "52.35694517235935",
    "bbox": "30.424772299999997,52.356174499093726,30.427167600000004,52.357740599093624"
  },
  {
    "school_osm_id": "307458353",
    "school_osm_type": "way",
    "school_name": "Школа № 6",
    "place_osm_id": "-5598659",
    "place_admin_level": "8",
    "place_place": "town",
    "place_name": "Речица",
    "lon": "30.40812299083495",
    "lat": "52.3560476738624",
    "bbox": "30.4066765,52.35550659909375,30.409420199999996,52.35664979909369"
  },
  {
    "school_osm_id": "307469511",
    "school_osm_type": "way",
    "school_name": "Речицкая районная гимназия №1",
    "place_osm_id": "-5598659",
    "place_admin_level": "8",
    "place_place": "town",
    "place_name": "Речица",
    "lon": "30.408922681413284",
    "lat": "52.367235971879936",
    "bbox": "30.4072116,52.366135099093235,30.4106135,52.36841249909314"
  },
  {
    "school_osm_id": "307469512",
    "school_osm_type": "way",
    "school_name": "Школа № 10",
    "place_osm_id": "-5598659",
    "place_admin_level": "8",
    "place_place": "town",
    "place_name": "Речица",
    "lon": "30.411227741984398",
    "lat": "52.367165247235405",
    "bbox": "30.41273109999999,52.36805259909317,30.409562899999997,52.366168299093246"
  },
  {
    "school_osm_id": "307469513",
    "school_osm_type": "way",
    "school_name": "Школа №2",
    "place_osm_id": "-5598659",
    "place_admin_level": "8",
    "place_place": "town",
    "place_name": "Речица",
    "lon": "30.394728765103967",
    "lat": "52.36334360294893",
    "bbox": "30.393472799999994,52.36246699909341,30.396189899999992,52.36421489909335"
  },
  {
    "school_osm_id": "307490438",
    "school_osm_type": "way",
    "school_name": "Школа № 11",
    "place_osm_id": "-5598659",
    "place_admin_level": "8",
    "place_place": "town",
    "place_name": "Речица",
    "lon": "30.34761751188648",
    "lat": "52.37137195756082",
    "bbox": "30.348726000000003,52.37238279909297,30.346476400000004,52.37033819909307"
  },
  {
    "school_osm_id": "307490439",
    "school_osm_type": "way",
    "school_name": "Школа № 7",
    "place_osm_id": "-5598659",
    "place_admin_level": "8",
    "place_place": "town",
    "place_name": "Речица",
    "lon": "30.350947923080508",
    "lat": "52.37037553704009",
    "bbox": "30.349289200000005,52.3692883990931,30.352488900000004,52.37134629909302"
  },
  {
    "school_osm_id": "307520517",
    "school_osm_type": "way",
    "school_name": "Детский сад-средняя школа № 1",
    "place_osm_id": "-5598659",
    "place_admin_level": "8",
    "place_place": "town",
    "place_name": "Речица",
    "lon": "30.430848729134244",
    "lat": "52.349815417050955",
    "bbox": "30.429391,52.348750599094075,30.4325009,52.35082749909397"
  },
  {
    "school_osm_id": "476178938",
    "school_osm_type": "way",
    "school_name": "Школа № 9",
    "place_osm_id": "-5598659",
    "place_admin_level": "8",
    "place_place": "town",
    "place_name": "Речица",
    "lon": "30.368921378942584",
    "lat": "52.37732928375891",
    "bbox": "30.3705778,52.378176399092716,30.367329899999998,52.37673069909277"
  },
  {
    "school_osm_id": "476182121",
    "school_osm_type": "way",
    "school_name": "Школа № 5",
    "place_osm_id": "-5598659",
    "place_admin_level": "8",
    "place_place": "town",
    "place_name": "Речица",
    "lon": "30.379023691379274",
    "lat": "52.36806751879187",
    "bbox": "30.37804,52.367487399093186,30.380069,52.36858179909315"
  },
  {
    "school_osm_id": "2460418304",
    "school_osm_type": "node",
    "school_name": "Центр Детского творчества",
    "place_osm_id": "-5598659",
    "place_admin_level": "8",
    "place_place": "town",
    "place_name": "Речица",
    "lon": "30.404179200000005",
    "lat": "52.36585449909326",
    "bbox": ""
  },
  {
    "school_osm_id": "2680783323",
    "school_osm_type": "node",
    "school_name": "Речицкий районный лицей",
    "place_osm_id": "-5598659",
    "place_admin_level": "8",
    "place_place": "town",
    "place_name": "Речица",
    "lon": "30.3955288",
    "lat": "52.36827009909313",
    "bbox": ""
  },
  {
    "school_osm_id": "6946492185",
    "school_osm_type": "node",
    "school_name": "СОШ",
    "place_osm_id": "-5598659",
    "place_admin_level": "8",
    "place_place": "town",
    "place_name": "Речица",
    "lon": "30.3949606",
    "lat": "52.36299189909337",
    "bbox": ""
  }
]