[
  {
    "school_osm_id": "492600552",
    "school_osm_type": "way",
    "school_name": "Школа 4",
    "place_osm_id": "-6722245",
    "place_admin_level": "8",
    "place_place": "town",
    "place_name": "Лунинец",
    "lon": "26.79463134088481",
    "lat": "52.25863215433027",
    "bbox": "26.7967114,52.25955599909879,26.792646599999998,52.25774769909889"
  },
  {
    "school_osm_id": "492600554",
    "school_osm_type": "way",
    "school_name": "Школа №2",
    "place_osm_id": "-6722245",
    "place_admin_level": "8",
    "place_place": "town",
    "place_name": "Лунинец",
    "lon": "26.79421587535407",
    "lat": "52.25464216102278",
    "bbox": "26.7922786,52.253773299099116,26.795685499999998,52.255798699098996"
  },
  {
    "school_osm_id": "492660576",
    "school_osm_type": "way",
    "school_name": "СШ №1",
    "place_osm_id": "-6722245",
    "place_admin_level": "8",
    "place_place": "town",
    "place_name": "Лунинец",
    "lon": "26.801146687619237",
    "lat": "52.24281413286359",
    "bbox": "26.800282100000004,52.2422785990998,26.8020166,52.243329899099756"
  },
  {
    "school_osm_id": "506284271",
    "school_osm_type": "way",
    "school_name": "",
    "place_osm_id": "-6722245",
    "place_admin_level": "8",
    "place_place": "town",
    "place_name": "Лунинец",
    "lon": "26.815745858284746",
    "lat": "52.24551536853544",
    "bbox": "26.8146409,52.24492259909967,26.8167277,52.24609189909959"
  },
  {
    "school_osm_id": "506749761",
    "school_osm_type": "way",
    "school_name": "УО \"Государственный общеобразовательный лицей г.Лунинца\"",
    "place_osm_id": "-6722245",
    "place_admin_level": "8",
    "place_place": "town",
    "place_name": "Лунинец",
    "lon": "26.829875259318094",
    "lat": "52.250237221667874",
    "bbox": "26.827832699999995,52.248821999099434,26.831941799999996,52.25139009909927"
  },
  {
    "school_osm_id": "506759645",
    "school_osm_type": "way",
    "school_name": "Автодром",
    "place_osm_id": "-6722245",
    "place_admin_level": "8",
    "place_place": "town",
    "place_name": "Лунинец",
    "lon": "26.85011188172273",
    "lat": "52.24931506493661",
    "bbox": "26.849355899999996,52.24879399909942,26.8509545,52.24983189909935"
  },
  {
    "school_osm_id": "530383296",
    "school_osm_type": "way",
    "school_name": "Автодром",
    "place_osm_id": "-6722245",
    "place_admin_level": "8",
    "place_place": "town",
    "place_name": "Лунинец",
    "lon": "26.78374953638109",
    "lat": "52.262930489963445",
    "bbox": "26.784656099999996,52.26339369909857,26.7828233,52.26248789909863"
  },
  {
    "school_osm_id": "530860563",
    "school_osm_type": "way",
    "school_name": "",
    "place_osm_id": "-6722245",
    "place_admin_level": "8",
    "place_place": "town",
    "place_name": "Лунинец",
    "lon": "26.80125121185514",
    "lat": "52.25297873289729",
    "bbox": "26.801988,52.253537999099144,26.800641599999995,52.252372099099205"
  }
]