[
  {
    "school_osm_id": "209962442",
    "school_osm_type": "way",
    "school_name": "Детская школа искусств",
    "place_osm_id": "-6722704",
    "place_admin_level": "8",
    "place_place": "town",
    "place_name": "Чериков",
    "lon": "31.373346650007093",
    "lat": "53.56901804918483",
    "bbox": "31.373233100000004,53.568938799126485,31.373460199999997,53.569097299126504"
  },
  {
    "school_osm_id": "209962499",
    "school_osm_type": "way",
    "school_name": "Центр творчества детей и молодежи",
    "place_osm_id": "-6722704",
    "place_admin_level": "8",
    "place_place": "town",
    "place_name": "Чериков",
    "lon": "31.374037542258687",
    "lat": "53.56899572394132",
    "bbox": "31.374473900000005,53.569117199126495,31.3736288,53.56886319912648"
  },
  {
    "school_osm_id": "409831946",
    "school_osm_type": "way",
    "school_name": "Средняя школа № 1 г. Черикова",
    "place_osm_id": "-6722704",
    "place_admin_level": "8",
    "place_place": "town",
    "place_name": "Чериков",
    "lon": "31.376721275680698",
    "lat": "53.57057803821881",
    "bbox": "31.3756524,53.56978269912659,31.377990099999995,53.57137369912673"
  },
  {
    "school_osm_id": "456266201",
    "school_osm_type": "way",
    "school_name": "",
    "place_osm_id": "-6722704",
    "place_admin_level": "8",
    "place_place": "town",
    "place_name": "Чериков",
    "lon": "31.393531848013392",
    "lat": "53.57452137537639",
    "bbox": "31.395715200000005,53.575679999127196,31.391410299999997,53.57341379912695"
  },
  {
    "school_osm_id": "464173493",
    "school_osm_type": "way",
    "school_name": "",
    "place_osm_id": "-6722704",
    "place_admin_level": "8",
    "place_place": "town",
    "place_name": "Чериков",
    "lon": "31.370622555554856",
    "lat": "53.574301236520505",
    "bbox": "31.3693864,53.573585999127,31.3718755,53.574982799127106"
  }
]