[
  {
    "school_osm_id": "-5253354",
    "school_osm_type": "relation",
    "school_name": "Гимназия №6",
    "place_osm_id": "-6722552",
    "place_admin_level": "8",
    "place_place": "city",
    "place_name": "Молодечно",
    "lon": "26.844696980863624",
    "lat": "54.304860280130185",
    "bbox": "26.843876,54.30419299924189,26.845597099999996,54.3055113992422"
  },
  {
    "school_osm_id": "-4119887",
    "school_osm_type": "relation",
    "school_name": "Гимназия №10",
    "place_osm_id": "-6722552",
    "place_admin_level": "8",
    "place_place": "city",
    "place_name": "Молодечно",
    "lon": "26.844210479712956",
    "lat": "54.30149273246299",
    "bbox": "26.841925999999997,54.30051309924116,26.8464839,54.302422099241525"
  },
  {
    "school_osm_id": "106992678",
    "school_osm_type": "way",
    "school_name": "Молодечненская детская школа искусств",
    "place_osm_id": "-6722552",
    "place_admin_level": "8",
    "place_place": "city",
    "place_name": "Молодечно",
    "lon": "26.837680866617568",
    "lat": "54.307532803854905",
    "bbox": "26.8373755,54.30735069924259,26.8379396,54.307744699242654"
  },
  {
    "school_osm_id": "194910603",
    "school_osm_type": "way",
    "school_name": "Гимназия №3",
    "place_osm_id": "-6722552",
    "place_admin_level": "8",
    "place_place": "city",
    "place_name": "Молодечно",
    "lon": "26.859144517697143",
    "lat": "54.31661202227655",
    "bbox": "26.8579523,54.31596979924438,26.8606976,54.3170657992446"
  },
  {
    "school_osm_id": "278807708",
    "school_osm_type": "way",
    "school_name": "Автошкола ДОСААФ",
    "place_osm_id": "-6722552",
    "place_admin_level": "8",
    "place_place": "city",
    "place_name": "Молодечно",
    "lon": "26.861326436675675",
    "lat": "54.31697823869918",
    "bbox": "26.860358799999997,54.3166016992445,26.862489399999998,54.317236899244655"
  },
  {
    "school_osm_id": "308322340",
    "school_osm_type": "way",
    "school_name": "Школа №12",
    "place_osm_id": "-6722552",
    "place_admin_level": "8",
    "place_place": "city",
    "place_name": "Молодечно",
    "lon": "26.848436182853952",
    "lat": "54.29331565642368",
    "bbox": "26.850235800000004,54.29461329923992,26.8470531,54.291843399239355"
  },
  {
    "school_osm_id": "308746074",
    "school_osm_type": "way",
    "school_name": "Школа № 11",
    "place_osm_id": "-6722552",
    "place_admin_level": "8",
    "place_place": "city",
    "place_name": "Молодечно",
    "lon": "26.852389947012195",
    "lat": "54.299382186044994",
    "bbox": "26.850922499999996,54.298383199240696,26.853979799999998,54.30048699924114"
  },
  {
    "school_osm_id": "311303581",
    "school_osm_type": "way",
    "school_name": "Школа №14",
    "place_osm_id": "-6722552",
    "place_admin_level": "8",
    "place_place": "city",
    "place_name": "Молодечно",
    "lon": "26.875857886032275",
    "lat": "54.29547961661264",
    "bbox": "26.874075199999996,54.29440329923989,26.8777985,54.29642719924027"
  },
  {
    "school_osm_id": "388121583",
    "school_osm_type": "way",
    "school_name": "Гимназия №7",
    "place_osm_id": "-6722552",
    "place_admin_level": "8",
    "place_place": "city",
    "place_name": "Молодечно",
    "lon": "26.83056301534508",
    "lat": "54.31175222348034",
    "bbox": "26.831182799999997,54.31253409924364,26.8298829,54.310984299243344"
  },
  {
    "school_osm_id": "388130343",
    "school_osm_type": "way",
    "school_name": "Школа №8",
    "place_osm_id": "-6722552",
    "place_admin_level": "8",
    "place_place": "city",
    "place_name": "Молодечно",
    "lon": "26.850563579336914",
    "lat": "54.305239581235284",
    "bbox": "26.852714999999996,54.30677579924245,26.848384399999997,54.30400549924187"
  },
  {
    "school_osm_id": "388135482",
    "school_osm_type": "way",
    "school_name": "Молодечненская специальная общеобразовательная школа-интернат",
    "place_osm_id": "-6722552",
    "place_admin_level": "8",
    "place_place": "city",
    "place_name": "Молодечно",
    "lon": "26.84829765889199",
    "lat": "54.309595648373154",
    "bbox": "26.8502691,54.31033059924321,26.846580199999995,54.30867689924284"
  },
  {
    "school_osm_id": "414379185",
    "school_osm_type": "way",
    "school_name": "СШ №2",
    "place_osm_id": "-6722552",
    "place_admin_level": "8",
    "place_place": "city",
    "place_name": "Молодечно",
    "lon": "26.826769817770003",
    "lat": "54.29971176450863",
    "bbox": "26.828509800000003,54.30087039924122,26.8252312,54.29861129924074"
  },
  {
    "school_osm_id": "417988518",
    "school_osm_type": "way",
    "school_name": "СШ №1 имени Янки Купалы",
    "place_osm_id": "-6722552",
    "place_admin_level": "8",
    "place_place": "city",
    "place_name": "Молодечно",
    "lon": "26.878137969624376",
    "lat": "54.318845758617826",
    "bbox": "26.876815300000004,54.31772639924471,26.8793459,54.320008299245224"
  },
  {
    "school_osm_id": "417988519",
    "school_osm_type": "way",
    "school_name": "Школа №4",
    "place_osm_id": "-6722552",
    "place_admin_level": "8",
    "place_place": "city",
    "place_name": "Молодечно",
    "lon": "26.84340518137096",
    "lat": "54.311372479639004",
    "bbox": "26.8442178,54.31241349924362,26.842303899999997,54.31045919924322"
  },
  {
    "school_osm_id": "417988520",
    "school_osm_type": "way",
    "school_name": "СШ №5",
    "place_osm_id": "-6722552",
    "place_admin_level": "8",
    "place_place": "city",
    "place_name": "Молодечно",
    "lon": "26.87002339027162",
    "lat": "54.319539390518635",
    "bbox": "26.8693769,54.31911139924505,26.870691599999997,54.320004399245214"
  },
  {
    "school_osm_id": "553155370",
    "school_osm_type": "way",
    "school_name": "Средняя школа №9 г. Молодечно",
    "place_osm_id": "-6722552",
    "place_admin_level": "8",
    "place_place": "city",
    "place_name": "Молодечно",
    "lon": "26.842425417210745",
    "lat": "54.325107131682",
    "bbox": "26.8434083,54.32630209924657,26.8412683,54.32407199924609"
  },
  {
    "school_osm_id": "627877524",
    "school_osm_type": "way",
    "school_name": "",
    "place_osm_id": "-6722552",
    "place_admin_level": "8",
    "place_place": "city",
    "place_name": "Молодечно",
    "lon": "26.85029377802151",
    "lat": "54.308878397987385",
    "bbox": "26.8519075,54.30968389924307,26.8480934,54.30780139924267"
  },
  {
    "school_osm_id": "4481325889",
    "school_osm_type": "node",
    "school_name": "Зал борьбы",
    "place_osm_id": "-6722552",
    "place_admin_level": "8",
    "place_place": "city",
    "place_name": "Молодечно",
    "lon": "26.8256306",
    "lat": "54.302015299241454",
    "bbox": ""
  },
  {
    "school_osm_id": "4560619954",
    "school_osm_type": "node",
    "school_name": "Детская художественная школа",
    "place_osm_id": "-6722552",
    "place_admin_level": "8",
    "place_place": "city",
    "place_name": "Молодечно",
    "lon": "26.823238999999997",
    "lat": "54.30577579924224",
    "bbox": ""
  },
  {
    "school_osm_id": "4961645623",
    "school_osm_type": "node",
    "school_name": "Гимназия-колледж искусств",
    "place_osm_id": "-6722552",
    "place_admin_level": "8",
    "place_place": "city",
    "place_name": "Молодечно",
    "lon": "26.847760399999995",
    "lat": "54.293715199239735",
    "bbox": ""
  }
]